[
  {
    "id": 1,
    "name": "King Fahd International Stadium",
    "city": "Riyadh",
    "lat": 24.7136,
    "lon": 46.7241,
    "capacity": 68752,
    "description": "The main stadium of the tournament, hosting the opening and final matches.",
    "image_path": "/stadiums/king_fahd.jpg"
  },
  {
    "id": 2,
    "name": "King Abdullah Sports City",
    "city": "Jeddah",
    "lat": 21.7633,
    "lon": 39.1408,
    "capacity": 62345,
    "description": "A modern stadium known for its unique architectural design.",
    "image_path": "/stadiums/king_abdullah.jpg"
  },
  {
    "id": 3,
    "name": "Prince Mohammed bin Fahd Stadium",
    "city": "Dammam",
    "lat": 26.3927,
    "lon": 50.1652,
    "capacity": 45000,
    "description": "Located in the eastern region, known for its excellent facilities.",
    "image_path": "/stadiums/prince_mohammed.jpg"
  },
  {
    "id": 4,
    "name": "King Saud University Stadium",
    "city": "Riyadh",
    "lat": 24.7219,
    "lon": 46.6267,
    "capacity": 25000,
    "description": "Modern university stadium renovated for the World Cup with state-of-the-art facilities.",
    "image_path": "/stadiums/king_saud_university.jpg"
  },
  {
    "id": 5,
    "name": "Prince Faisal bin Fahd Stadium",
    "city": "Riyadh",
    "lat": 24.6803,
    "lon": 46.7464,
    "capacity": 22500,
    "description": "Historic stadium in the heart of Riyadh, renovated specifically for the tournament.",
    "image_path": "/stadiums/prince_faisal.jpg"
  },
  {
    "id": 6,
    "name": "Prince Abdullah Al-Faisal Stadium",
    "city": "Jeddah",
    "lat": 21.5169,
    "lon": 39.2042,
    "capacity": 27000,
    "description": "Iconic stadium in Jeddah known for its excellent atmosphere and modern facilities.",
    "image_path": "/stadiums/prince_abdullah.jpg"
  },
  {
    "id": 7,
    "name": "Prince Sultan bin Abdul Aziz Stadium",
    "city": "Abha",
    "lat": 18.2449,
    "lon": 42.5577,
    "capacity": 20000,
    "description": "Mountain stadium offering spectacular views of the Asir region landscape.",
    "image_path": "/stadiums/prince_sultan.jpg"
  },
  {
    "id": 8,
    "name": "King Salman Sport City Stadium",
    "city": "Medina",
    "lat": 24.5246,
    "lon": 39.5692,
    "capacity": 40000,
    "description": "Newly constructed stadium featuring cutting-edge technology and sustainable design.",
    "image_path": "/stadiums/king_salman.jpg"
  },
  {
    "id": 9,
    "name": "Prince Mohamed bin Salman Stadium",
    "city": "NEOM",
    "lat": 27.9654,
    "lon": 35.2618,
    "capacity": 75000,
    "description": "Futuristic stadium in the NEOM development, showcasing Saudi Arabia's Vision 2030.",
    "image_path": "/stadiums/prince_mbs.jpg"
  },
  {
    "id": 10,
    "name": "Prince Saud bin Jalawi Stadium",
    "city": "Al Khobar",
    "lat": 26.2794,
    "lon": 50.2083,
    "capacity": 22000,
    "description": "Coastal stadium with views of the Arabian Gulf, known for its unique architectural design.",
    "image_path": "/stadiums/prince_saud_jalawi.jpg"
  },
  {
    "id": 11,
    "name": "King Khalid Sports City Stadium",
    "city": "Tabuk",
    "lat": 28.3998,
    "lon": 36.5715,
    "capacity": 25000,
    "description": "Northern region stadium featuring modern amenities and excellent accessibility.",
    "image_path": "/stadiums/king_khalid_tabuk.jpg"
  },
  {
    "id": 12,
    "name": "Prince Abdul Aziz bin Musaed Stadium",
    "city": "Hail",
    "lat": 27.5114,
    "lon": 41.7208,
    "capacity": 16000,
    "description": "Intimate stadium known for its passionate atmosphere and traditional design elements.",
    "image_path": "/stadiums/prince_abdulaziz_hail.jpg"
  },
  {
    "id": 13,
    "name": "Al-Batin FC Stadium",
    "city": "Hafar Al-Batin",
    "lat": 28.4328,
    "lon": 45.9708,
    "capacity": 18000,
    "description": "Modern stadium in the northern border region, renovated for the World Cup.",
    "image_path": "/stadiums/al_batin.jpg"
  }
]